{
"type": "FeatureCollection",
"name": "jamaica-inventory",
"features": [
{ "type": "Feature", "properties": { "name": "Hughenden Pharmacy", "amenity": "pharmacy", "other_tags": "\"amenity\"=>\"pharmacy\",\"addr:country\"=>\"JM\"", "osm_id": "442000523" }, "geometry": { "type": "Point", "coordinates": [ -76.8228138, 18.0280313 ] } },
{ "type": "Feature", "properties": { "name": "University Hospital of the West Indies", "amenity": "hospital", "other_tags": "\"amenity\"=>\"hospital\",\"emergency\"=>\"yes\",\"healthcare\"=>\"hospital\",\"opening_hours\"=>\"24\/7\",\"operator\"=>\"Government of Jamaica\"", "osm_id": "973449690" }, "geometry": { "type": "Point", "coordinates": [ -76.7433804, 18.0113411 ] } },
{ "type": "Feature", "properties": { "name": "Negril Pharmacy", "amenity": "pharmacy", "other_tags": "\"amenity\"=>\"pharmacy\"", "osm_id": "1338117940" }, "geometry": { "type": "Point", "coordinates": [ -78.3470979, 18.2782409 ] } },
{ "type": "Feature", "properties": { "name": "Mandeville Public Hospital", "amenity": "hospital", "other_tags": "\"amenity\"=>\"hospital\",\"operator\"=>\"Ministry of Health\",\"emergency\"=>\"yes\"", "osm_id": "1888911780" }, "geometry": { "type": "Point", "coordinates": [ -77.5095568, 18.0423286 ] } },
{ "type": "Feature", "properties": { "name": "Discount Pharmacy", "amenity": "pharmacy", "other_tags": "\"amenity\"=>\"pharmacy\",\"dispensing\"=>\"yes\"", "osm_id": "1917689355" }, "geometry": { "type": "Point", "coordinates": [ -76.769236, 18.0213441 ] } },
{ "type": "Feature", "properties": { "name": "Pharmacy", "amenity": "pharmacy", "other_tags": "\"amenity\"=>\"pharmacy\"", "osm_id": "1924425763" }, "geometry": { "type": "Point", "coordinates": [ -76.8164538, 18.0438746 ] } },
{ "type": "Feature", "properties": { "name": "Isaac Barrant Clinic", "amenity": "hospital", "other_tags": "\"amenity\"=>\"hospital\"", "osm_id": "2210818055" }, "geometry": { "type": "Point", "coordinates": [ -76.2650257, 17.9173732 ] } },
{ "type": "Feature", "properties": { "name": "Community Health Center", "amenity": "hospital", "other_tags": "\"amenity\"=>\"hospital\"", "osm_id": "2521442713" }, "geometry": { "type": "Point", "coordinates": [ -77.7999952, 18.5117068 ] } },
{ "type": "Feature", "properties": { "name": "Kingston Open MRI", "amenity": "hospital", "other_tags": "\"phone\"=>\"+1 876 908 1828\",\"amenity\"=>\"hospital\",\"website\"=>\"http:\/\/www.kingstonopenmri.com\/\",\"addr:city\"=>\"Kingston\",\"addr:street\"=>\"Constant Spring Road\",\"addr:postcode\"=>\"10\",\"payment:bitcoin\"=>\"yes\",\"addr:housenumber\"=>\"48\"", "osm_id": "2576174707" }, "geometry": { "type": "Point", "coordinates": [ -76.7956142, 18.0336015 ] } },
{ "type": "Feature", "properties": { "name": "Cross Keys Health Centre", "amenity": "hospital", "other_tags": "\"amenity\"=>\"hospital\",\"emergency\"=>\"yes\",\"opening_hours\"=>\"Mo-Fr 08:30-16:00\"", "osm_id": "2641521380" }, "geometry": { "type": "Point", "coordinates": [ -77.5008098, 17.8977537 ] } },
{ "type": "Feature", "properties": { "name": "Lincoln Health Centre", "amenity": "hospital", "other_tags": "\"amenity\"=>\"hospital\",\"addr:city\"=>\"Mandeville\",\"emergency\"=>\"yes\",\"addr:street\"=>\"Lincoln-Fairfield Main Road\",\"addr:housename\"=>\"Lincoln Heath Centre\"", "osm_id": "2641583981" }, "geometry": { "type": "Point", "coordinates": [ -77.5666814, 18.0235735 ] } },
{ "type": "Feature", "properties": { "name": "Mile Gully Health Centre", "amenity": "clinic", "other_tags": "\"addr:street\"=>\"Mile Gully Main Road\",\"amenity\"=>\"clinic\"", "osm_id": "2649189228" }, "geometry": { "type": "Point", "coordinates": [ -77.5437373, 18.1342928 ] } },
{ "type": "Feature", "properties": { "name": "National Chest Hospital", "amenity": "hospital", "other_tags": "\"addr:housenumber\"=>\"35 1\/5\",\"addr:street\"=>\"Barbican Rd\",\"amenity\"=>\"hospital\",\"phone\"=>\"+18769270655\"", "osm_id": "2658010771" }, "geometry": { "type": "Point", "coordinates": [ -76.760979, 18.0225122 ] } },
{ "type": "Feature", "properties": { "name": "Junction Medical", "amenity": "doctors", "other_tags": "\"amenity\"=>\"doctors\"", "osm_id": "2681065722" }, "geometry": { "type": "Point", "coordinates": [ -77.605971, 17.9099235 ] } },
{ "type": "Feature", "properties": { "name": "Dr. Hoyte", "amenity": "doctors", "other_tags": "\"amenity\"=>\"doctors\"", "osm_id": "2681065725" }, "geometry": { "type": "Point", "coordinates": [ -77.6059391, 17.910304 ] } },
{ "type": "Feature", "properties": { "name": "Dr. Basil Robinson", "amenity": "doctors", "other_tags": "\"amenity\"=>\"doctors\",\"addr:street\"=>\"Manchester Road\"", "osm_id": "2681104251" }, "geometry": { "type": "Point", "coordinates": [ -77.5061465, 18.0341452 ] } },
{ "type": "Feature", "properties": { "name": "Fontana Pharmacy", "amenity": "pharmacy", "other_tags": "\"amenity\"=>\"pharmacy\"", "osm_id": "2688149109" }, "geometry": { "type": "Point", "coordinates": [ -77.5080015, 18.0458707 ] } },
{ "type": "Feature", "properties": { "name": "Bravo Pharmacy", "amenity": "pharmacy", "other_tags": "\"amenity\"=>\"pharmacy\"", "osm_id": "2688149119" }, "geometry": { "type": "Point", "coordinates": [ -77.5092617, 18.0380702 ] } },
{ "type": "Feature", "properties": { "name": "Dr. Vish Junction Office", "amenity": "doctors", "other_tags": "\"amenity\"=>\"doctors\",\"opening_hours\"=>\"04:00-18:00\"", "osm_id": "2711514868" }, "geometry": { "type": "Point", "coordinates": [ -77.6076223, 17.9097496 ] } },
{ "type": "Feature", "properties": { "name": "Junction Pharmacy", "amenity": "pharmacy", "other_tags": "\"amenity\"=>\"pharmacy\"", "osm_id": "2745664802" }, "geometry": { "type": "Point", "coordinates": [ -77.6081008, 17.9058583 ] } },
{ "type": "Feature", "properties": { "name": "Lenmax Pharmacy", "amenity": "pharmacy", "other_tags": "\"amenity\"=>\"pharmacy\"", "osm_id": "2745664805" }, "geometry": { "type": "Point", "coordinates": [ -77.6060338, 17.9088468 ] } },
{ "type": "Feature", "properties": { "name": "Rite Care Pharmacy", "amenity": "pharmacy", "other_tags": "\"amenity\"=>\"pharmacy\"", "osm_id": "2745664806" }, "geometry": { "type": "Point", "coordinates": [ -77.6056208, 17.908315 ] } },
{ "type": "Feature", "properties": { "name": "Dr. R.D. Wilson Medical Care", "amenity": "doctors", "other_tags": "\"addr:city\"=>\"Junction\",\"addr:housenumber\"=>\"Shop #29\",\"addr:street\"=>\"Pines Plaza\",\"amenity\"=>\"doctors\",\"email\"=>\"drrdwilson@gmail.com\",\"healthcare\"=>\"doctor\",\"healthcare:speciality\"=>\"general;gynaecology\",\"opening_hours\"=>\"Mo-Fr 08:30-16:30,  Sa 09:30-", "osm_id": "2879061766" }, "geometry": { "type": "Point", "coordinates": [ -77.6051487, 17.9081209 ] } },
{ "type": "Feature", "properties": { "name": "St. Paul's Pharmacy", "amenity": "pharmacy", "other_tags": "\"amenity\"=>\"pharmacy\"", "osm_id": "2883887889" }, "geometry": { "type": "Point", "coordinates": [ -77.6065523, 17.9059315 ] } },
{ "type": "Feature", "properties": { "name": "Andrews Memorial Hospital", "amenity": "hospital", "other_tags": "\"addr:housenumber\"=>\"27\",\"addr:street\"=>\"Hope Road\",\"amenity\"=>\"hospital\",\"emergency\"=>\"yes\",\"healthcare\"=>\"hospital\",\"phone\"=>\"+1876 926-7401\"", "osm_id": "3148451729" }, "geometry": { "type": "Point", "coordinates": [ -76.7881019, 18.0147267 ] } },
{ "type": "Feature", "properties": { "name": "Percy Junor Hospital", "amenity": "hospital", "other_tags": "\"amenity\"=>\"hospital\",\"operator\"=>\"Ministry of Health\"", "osm_id": "3162368771" }, "geometry": { "type": "Point", "coordinates": [ -77.4648507, 18.1554686 ] } },
{ "type": "Feature", "properties": { "name": "Pharmacie Centrale", "amenity": "pharmacy", "other_tags": "\"amenity\"=>\"pharmacy\",\"opening_hours\"=>\"08:00-18:00\"", "osm_id": "3292562651" }, "geometry": { "type": "Point", "coordinates": [ -76.7874019, 18.0081517 ] } },
{ "type": "Feature", "properties": { "name": "Parkington Pharmacy Limited", "amenity": "pharmacy", "other_tags": "\"amenity\"=>\"pharmacy\"", "osm_id": "3596918340" }, "geometry": { "type": "Point", "coordinates": [ -76.7972798, 18.0068604 ] } },
{ "type": "Feature", "properties": { "name": "Doctor", "amenity": "doctors", "other_tags": "\"amenity\"=>\"doctors\"", "osm_id": "3664711470" }, "geometry": { "type": "Point", "coordinates": [ -76.7943539, 18.033533 ] } },
{ "type": "Feature", "properties": { "name": "New Dale Pharmacy", "amenity": "pharmacy", "other_tags": "\"amenity\"=>\"pharmacy\"", "osm_id": "3664727731" }, "geometry": { "type": "Point", "coordinates": [ -76.8025402, 18.0475197 ] } },
{ "type": "Feature", "properties": { "name": "Amy Muschett Home for the Aged", "amenity": "social_facility", "other_tags": "\"amenity\"=>\"social_facility\",\"social_facility\"=>\"group_home\",\"social_facility:for\"=>\"senior\"", "osm_id": "3721456688" }, "geometry": { "type": "Point", "coordinates": [ -77.5280823, 18.4693728 ] } },
{ "type": "Feature", "properties": { "name": "Duncans Medical Center", "amenity": "clinic", "other_tags": "\"amenity\"=>\"clinic\"", "osm_id": "3721456693" }, "geometry": { "type": "Point", "coordinates": [ -77.5300997, 18.4689064 ] } },
{ "type": "Feature", "properties": { "name": "The Alchemist", "amenity": "pharmacy", "other_tags": "\"amenity\"=>\"pharmacy\",\"addr:street\"=>\"Hillcrest Avenue\",\"addr:postcode\"=>\"Kingston 6\",\"addr:housenumber\"=>\"20\"", "osm_id": "3750527706" }, "geometry": { "type": "Point", "coordinates": [ -76.7777623, 18.0195388 ] } },
{ "type": "Feature", "properties": { "name": "The Santa Cruz Pharmacy", "amenity": "pharmacy", "other_tags": "\"amenity\"=>\"pharmacy\",\"drive_through\"=>\"no\"", "osm_id": "3757611369" }, "geometry": { "type": "Point", "coordinates": [ -77.6991504, 18.0530763 ] } },
{ "type": "Feature", "properties": { "name": "Caledonia Mall Pharmacy", "amenity": "pharmacy", "other_tags": "\"amenity\"=>\"pharmacy\"", "osm_id": "3759241428" }, "geometry": { "type": "Point", "coordinates": [ -77.5100067, 18.04072 ] } },
{ "type": "Feature", "properties": { "name": "Mid Island Medical Laboratory", "amenity": "doctors", "other_tags": "\"amenity\"=>\"doctors\"", "osm_id": "3759306696" }, "geometry": { "type": "Point", "coordinates": [ -77.5099959, 18.0435534 ] } },
{ "type": "Feature", "properties": { "name": "Park View Pharmacy", "amenity": "pharmacy", "other_tags": "\"amenity\"=>\"pharmacy\"", "osm_id": "3762929241" }, "geometry": { "type": "Point", "coordinates": [ -77.5082476, 18.0387225 ] } },
{ "type": "Feature", "properties": { "name": "Medspring Pharmacy", "amenity": "pharmacy", "other_tags": "\"level\"=>\"1\",\"phone\"=>\"962-5258\",\"amenity\"=>\"pharmacy\"", "osm_id": "3763102181" }, "geometry": { "type": "Point", "coordinates": [ -77.5087707, 18.0385638 ] } },
{ "type": "Feature", "properties": { "name": "Pure Life Pharmacy", "amenity": "pharmacy", "other_tags": "\"amenity\"=>\"pharmacy\"", "osm_id": "3763134005" }, "geometry": { "type": "Point", "coordinates": [ -77.5083214, 18.0399805 ] } },
{ "type": "Feature", "properties": { "name": "Fairview Drug", "amenity": "pharmacy", "other_tags": "\"amenity\"=>\"pharmacy\"", "osm_id": "3764461474" }, "geometry": { "type": "Point", "coordinates": [ -77.9216176, 18.4537411 ] } },
{ "type": "Feature", "properties": { "name": "Haughton's Rx", "amenity": "pharmacy", "other_tags": "\"amenity\"=>\"pharmacy\"", "osm_id": "3764510507" }, "geometry": { "type": "Point", "coordinates": [ -77.5049962, 18.0472146 ] } },
{ "type": "Feature", "properties": { "name": "Wholelife Pharmacy", "amenity": "pharmacy", "other_tags": "\"amenity\"=>\"pharmacy\"", "osm_id": "3766354392" }, "geometry": { "type": "Point", "coordinates": [ -77.4117725, 18.0348224 ] } },
{ "type": "Feature", "properties": { "name": "Sir John Golding Rehabilitation Center", "amenity": "hospital", "other_tags": "\"addr:housenumber\"=>\"7\",\"addr:street\"=>\"John Golding Road\",\"amenity\"=>\"hospital\",\"phone\"=>\"+18769272504\"", "osm_id": "3768978579" }, "geometry": { "type": "Point", "coordinates": [ -76.7401958, 18.0052648 ] } },
{ "type": "Feature", "properties": { "name": "GSD Pharmacy", "amenity": "pharmacy", "other_tags": "\"phone\"=>\"986-6848\",\"amenity\"=>\"pharmacy\"", "osm_id": "3769090109" }, "geometry": { "type": "Point", "coordinates": [ -77.252769, 17.9737283 ] } },
{ "type": "Feature", "properties": { "name": "Far More Pharmacy", "amenity": "pharmacy", "other_tags": "\"amenity\"=>\"pharmacy\"", "osm_id": "3769752264" }, "geometry": { "type": "Point", "coordinates": [ -77.242371, 17.9684532 ] } },
{ "type": "Feature", "properties": { "name": "Dr. Horace A Charod", "amenity": "doctors", "other_tags": "\"level\"=>\"2\",\"amenity\"=>\"doctors\"", "osm_id": "3769757213" }, "geometry": { "type": "Point", "coordinates": [ -77.243177, 17.9695988 ] } },
{ "type": "Feature", "properties": { "name": "Heart Trust NTA", "amenity": "clinic", "other_tags": "\"amenity\"=>\"clinic\"", "osm_id": "3773492894" }, "geometry": { "type": "Point", "coordinates": [ -76.8048789, 17.9995757 ] } },
{ "type": "Feature", "properties": { "name": "Medical Centre", "amenity": "doctors", "other_tags": "\"amenity\"=>\"doctors\"", "osm_id": "3774334191" }, "geometry": { "type": "Point", "coordinates": [ -78.3449057, 18.2785486 ] } },
{ "type": "Feature", "properties": { "name": "Pharmacy", "amenity": "pharmacy", "other_tags": "\"amenity\"=>\"pharmacy\"", "osm_id": "3774334194" }, "geometry": { "type": "Point", "coordinates": [ -78.3447153, 18.2785741 ] } },
{ "type": "Feature", "properties": { "name": "Vicky's Pharmacy", "amenity": "pharmacy", "other_tags": "\"level\"=>\"1\",\"amenity\"=>\"pharmacy\",\"addr:city\"=>\"Old Harbour\",\"addr:street\"=>\"West Street\",\"drive_through\"=>\"no\",\"addr:housenumber\"=>\"6\"", "osm_id": "3775290757" }, "geometry": { "type": "Point", "coordinates": [ -77.1137527, 17.9389445 ] } },
{ "type": "Feature", "properties": { "name": "Sambells Discout Pharmacy", "amenity": "pharmacy", "other_tags": "\"amenity\"=>\"pharmacy\",\"phone\"=>\"876-903-2661\"", "osm_id": "3776984641" }, "geometry": { "type": "Point", "coordinates": [ -77.0317239, 18.1370531 ] } },
{ "type": "Feature", "properties": { "name": "Absolute Care", "amenity": "clinic", "other_tags": "\"amenity\"=>\"clinic\"", "osm_id": "3777121506" }, "geometry": { "type": "Point", "coordinates": [ -77.0327001, 18.1381872 ] } },
{ "type": "Feature", "properties": { "name": "Bickens Pharmacy", "amenity": "pharmacy", "other_tags": "\"amenity\"=>\"pharmacy\"", "osm_id": "3777162942" }, "geometry": { "type": "Point", "coordinates": [ -77.0315233, 18.1415134 ] } },
{ "type": "Feature", "properties": { "name": "Total Wellness Centre", "amenity": "clinic", "other_tags": "\"amenity\"=>\"clinic\"", "osm_id": "3777253338" }, "geometry": { "type": "Point", "coordinates": [ -77.0317439, 18.1350201 ] } },
{ "type": "Feature", "properties": { "name": "SRK Medical Centre", "amenity": "clinic", "other_tags": "\"phone\"=>\"985-9115\",\"amenity\"=>\"clinic\",\"addr:city\"=>\"Linstead\",\"addr:street\"=>\"King Street\",\"opening_hours\"=>\"09:00-19:00\",\"addr:housenumber\"=>\"#12\"", "osm_id": "3777357283" }, "geometry": { "type": "Point", "coordinates": [ -77.0317635, 18.1349856 ] } },
{ "type": "Feature", "properties": { "name": null, "amenity": "pharmacy", "other_tags": "\"amenity\"=>\"pharmacy\"", "osm_id": "3777470169" }, "geometry": { "type": "Point", "coordinates": [ -76.884287, 17.9837037 ] } },
{ "type": "Feature", "properties": { "name": "Grange Lane Pharmacy", "amenity": "pharmacy", "other_tags": "\"amenity\"=>\"pharmacy\"", "osm_id": "3777470180" }, "geometry": { "type": "Point", "coordinates": [ -76.8824618, 17.9838695 ] } },
{ "type": "Feature", "properties": { "name": "Medical Centre", "amenity": "clinic", "other_tags": "\"amenity\"=>\"clinic\"", "osm_id": "3777470194" }, "geometry": { "type": "Point", "coordinates": [ -76.8814519, 17.9821908 ] } },
{ "type": "Feature", "properties": { "name": "Royale Medical Centre", "amenity": "clinic", "other_tags": "\"amenity\"=>\"clinic\",\"addr:city\"=>\"Savannah La Mar\",\"addr:street\"=>\"Lewis Street\",\"addr:housenumber\"=>\"10\"", "osm_id": "3778338232" }, "geometry": { "type": "Point", "coordinates": [ -78.1317931, 18.2226338 ] } },
{ "type": "Feature", "properties": { "name": "Dr Reddy's Medical Centre", "amenity": "clinic", "other_tags": "\"phone\"=>\"955-2727\",\"amenity\"=>\"clinic\",\"opening_hours\"=>\"24\/7\"", "osm_id": "3778338238" }, "geometry": { "type": "Point", "coordinates": [ -78.1322926, 18.2228681 ] } },
{ "type": "Feature", "properties": { "name": "Pharmacy", "amenity": "pharmacy", "other_tags": "\"amenity\"=>\"pharmacy\"", "osm_id": "3778582632" }, "geometry": { "type": "Point", "coordinates": [ -78.1307673, 18.2250456 ] } },
{ "type": "Feature", "properties": { "name": "Heritage Pharmacy", "amenity": "pharmacy", "other_tags": "\"amenity\"=>\"pharmacy\"", "osm_id": "3778621069" }, "geometry": { "type": "Point", "coordinates": [ -78.1328917, 18.2216644 ] } },
{ "type": "Feature", "properties": { "name": "Heritage Medical Centre", "amenity": "clinic", "other_tags": "\"amenity\"=>\"clinic\"", "osm_id": "3778621074" }, "geometry": { "type": "Point", "coordinates": [ -78.1331009, 18.2217281 ] } },
{ "type": "Feature", "properties": { "name": null, "amenity": "pharmacy", "other_tags": "\"amenity\"=>\"pharmacy\"", "osm_id": "3778803517" }, "geometry": { "type": "Point", "coordinates": [ -76.9177577, 17.9973822 ] } },
{ "type": "Feature", "properties": { "name": "My Pharmacy", "amenity": "pharmacy", "other_tags": "\"amenity\"=>\"pharmacy\",\"addr:city\"=>\"Spanish Town\",\"addr:street\"=>\"Old Harbour Road\"", "osm_id": "3779624144" }, "geometry": { "type": "Point", "coordinates": [ -76.9819668, 17.9897315 ] } },
{ "type": "Feature", "properties": { "name": "Horizons Pharmacy", "amenity": "pharmacy", "other_tags": "\"amenity\"=>\"pharmacy\",\"healthcare\"=>\"pharmacy\"", "osm_id": "3779801268" }, "geometry": { "type": "Point", "coordinates": [ -76.7784632, 18.0038056 ] } },
{ "type": "Feature", "properties": { "name": "Liguanea Lane Pharmacy", "amenity": "pharmacy", "other_tags": "\"amenity\"=>\"pharmacy\"", "osm_id": "3783426643" }, "geometry": { "type": "Point", "coordinates": [ -76.7665815, 18.021013 ] } },
{ "type": "Feature", "properties": { "name": null, "amenity": "pharmacy", "other_tags": "\"amenity\"=>\"pharmacy\",\"addr:city\"=>\"Spanish Town\",\"addr:street\"=>\"Willowdene Parkway\"", "osm_id": "3783503186" }, "geometry": { "type": "Point", "coordinates": [ -76.9786286, 17.9911554 ] } },
{ "type": "Feature", "properties": { "name": "Doctor's Office", "amenity": "doctors", "other_tags": "\"amenity\"=>\"doctors\",\"healthcare\"=>\"doctor\"", "osm_id": "3783543231" }, "geometry": { "type": "Point", "coordinates": [ -76.740344, 17.9951666 ] } },
{ "type": "Feature", "properties": { "name": "Palms Pharmacy", "amenity": "pharmacy", "other_tags": "\"amenity\"=>\"pharmacy\",\"addr:city\"=>\"Spanish Town\",\"addr:street\"=>\"Young Street\"", "osm_id": "3783951144" }, "geometry": { "type": "Point", "coordinates": [ -76.9572592, 17.9969062 ] } },
{ "type": "Feature", "properties": { "name": "Downtown Medical Centre", "amenity": "clinic", "other_tags": "\"amenity\"=>\"clinic\"", "osm_id": "3785307170" }, "geometry": { "type": "Point", "coordinates": [ -76.790149, 17.9655785 ] } },
{ "type": "Feature", "properties": { "name": "Dick Kenkead Pharmacy", "amenity": "pharmacy", "other_tags": "\"amenity\"=>\"pharmacy\"", "osm_id": "3785307171" }, "geometry": { "type": "Point", "coordinates": [ -76.7903394, 17.9656065 ] } },
{ "type": "Feature", "properties": { "name": "VR Pharmacy & Beauty Supplies", "amenity": "pharmacy", "other_tags": "\"level\"=>\"1\",\"amenity\"=>\"pharmacy\",\"addr:city\"=>\"Spanish Town\",\"addr:street\"=>\"Young Street\"", "osm_id": "3786354023" }, "geometry": { "type": "Point", "coordinates": [ -76.9562962, 17.9952696 ] } },
{ "type": "Feature", "properties": { "name": "Cumberland Pharmacy", "amenity": "pharmacy", "other_tags": "\"amenity\"=>\"pharmacy\",\"addr:city\"=>\"Spanish Town\",\"addr:street\"=>\"Young Street\"", "osm_id": "3786393970" }, "geometry": { "type": "Point", "coordinates": [ -76.9547351, 17.9922377 ] } },
{ "type": "Feature", "properties": { "name": "New World Pharmacy", "amenity": "pharmacy", "other_tags": "\"addr:street\"=>\"Molynes Road\",\"amenity\"=>\"pharmacy\",\"name:en\"=>\"New World Pharmacy\"", "osm_id": "3786799383" }, "geometry": { "type": "Point", "coordinates": [ -76.8115366, 18.0207384 ] } },
{ "type": "Feature", "properties": { "name": "Sunrise Pharmacy", "amenity": "pharmacy", "other_tags": "\"amenity\"=>\"pharmacy\"", "osm_id": "3787736975" }, "geometry": { "type": "Point", "coordinates": [ -76.8121034, 18.0375775 ] } },
{ "type": "Feature", "properties": { "name": "Doctor's Office", "amenity": "doctors", "other_tags": "\"amenity\"=>\"doctors\"", "osm_id": "3787759262" }, "geometry": { "type": "Point", "coordinates": [ -76.7960246, 18.0346697 ] } },
{ "type": "Feature", "properties": { "name": "Marching Bees Pharmacy", "amenity": "pharmacy", "other_tags": "\"addr:city\"=>\"Kingston\",\"addr:street\"=>\"Caledonia Avenue\",\"amenity\"=>\"pharmacy\",\"level\"=>\"1\",\"phone\"=>\"906-2860\"", "osm_id": "3787792955" }, "geometry": { "type": "Point", "coordinates": [ -76.7868887, 17.9937399 ] } },
{ "type": "Feature", "properties": { "name": "Discount Centre Pharmacy", "amenity": "pharmacy", "other_tags": "\"amenity\"=>\"pharmacy\",\"healthcare\"=>\"pharmacy\"", "osm_id": "3788018952" }, "geometry": { "type": "Point", "coordinates": [ -76.7932872, 18.0499105 ] } },
{ "type": "Feature", "properties": { "name": "Monarch Pharmacy", "amenity": "pharmacy", "other_tags": "\"amenity\"=>\"pharmacy\"", "osm_id": "3788234394" }, "geometry": { "type": "Point", "coordinates": [ -76.7774399, 18.0298335 ] } },
{ "type": "Feature", "properties": { "name": "Light Pharmacy", "amenity": "pharmacy", "other_tags": "\"amenity\"=>\"pharmacy\"", "osm_id": "3789572929" }, "geometry": { "type": "Point", "coordinates": [ -76.4103296, 17.8811695 ] } },
{ "type": "Feature", "properties": { "name": "Dr. Carol Hamilton", "amenity": "doctors", "other_tags": "\"amenity\"=>\"doctors\"", "osm_id": "3832145870" }, "geometry": { "type": "Point", "coordinates": [ -77.6092625, 17.9062416 ] } },
{ "type": "Feature", "properties": { "name": "Trinityville Health Centre", "amenity": "hospital", "other_tags": "\"amenity\"=>\"hospital\",\"healthcare\"=>\"centre\",\"description\"=>\"Type II\"", "osm_id": "4129641495" }, "geometry": { "type": "Point", "coordinates": [ -76.5104581, 17.9618487 ] } },
{ "type": "Feature", "properties": { "name": "Font Hill Health Centre", "amenity": "hospital", "other_tags": "\"amenity\"=>\"hospital\",\"designation\"=>\"Health Centre\",\"government\"=>\"building\",\"healthcare\"=>\"yes\"", "osm_id": "4142137515" }, "geometry": { "type": "Point", "coordinates": [ -76.5063939, 17.9431598 ] } },
{ "type": "Feature", "properties": { "name": "Ewarton health center", "amenity": "clinic", "other_tags": "\"phone\"=>\"7056201\",\"amenity\"=>\"clinic\",\"addr:street\"=>\"Mount  rosser\",\"opening_hours\"=>\"Mo-Fr 08:00-16:00\",\"internet_access\"=>\"wlan\"", "osm_id": "4201512589" }, "geometry": { "type": "Point", "coordinates": [ -77.0012849, 18.1132293 ] } },
{ "type": "Feature", "properties": { "name": "Monarch Pharmacy", "amenity": "pharmacy", "other_tags": "\"addr:street\"=>\"Braeton Parkway\",\"amenity\"=>\"pharmacy\",\"opening_hours\"=>\"Mo-Sa 10:00-23:00; Su 10:00-21:00\",\"phone\"=>\"+18766127919\"", "osm_id": "4233670899" }, "geometry": { "type": "Point", "coordinates": [ -76.8984704, 17.9607217 ] } },
{ "type": "Feature", "properties": { "name": "Medlife Rx", "amenity": "pharmacy", "other_tags": "\"amenity\"=>\"pharmacy\"", "osm_id": "4233681796" }, "geometry": { "type": "Point", "coordinates": [ -76.8935985, 17.9578266 ] } },
{ "type": "Feature", "properties": { "name": "Your Choice Family Pharmacy", "amenity": "pharmacy", "other_tags": "\"amenity\"=>\"pharmacy\"", "osm_id": "4278347390" }, "geometry": { "type": "Point", "coordinates": [ -77.0314428, 18.1367777 ] } },
{ "type": "Feature", "properties": { "name": null, "amenity": "clinic", "other_tags": "\"amenity\"=>\"clinic\",\"healthcare\"=>\"centre\",\"addr:street\"=>\"Range Crescent\",\"addr:housenumber\"=>\"2\"", "osm_id": "4286048828" }, "geometry": { "type": "Point", "coordinates": [ -76.7595878, 17.975737 ] } },
{ "type": "Feature", "properties": { "name": "Fairhaven Medical", "amenity": "doctors", "other_tags": "\"addr:housenumber\"=>\"34\",\"addr:street\"=>\"Lady Musgrave Road\",\"amenity\"=>\"doctors\",\"healthcare\"=>\"doctor\"", "osm_id": "4337171897" }, "geometry": { "type": "Point", "coordinates": [ -76.778994, 18.0072845 ] } },
{ "type": "Feature", "properties": { "name": "port Antonio Hospital", "amenity": "hospital", "other_tags": "\"amenity\"=>\"hospital\",\"name:en\"=>\"port Antonio Hospital\"", "osm_id": "4399419390" }, "geometry": { "type": "Point", "coordinates": [ -76.4561682, 18.1764268 ] } },
{ "type": "Feature", "properties": { "name": "Apex Medical Center", "amenity": "clinic", "other_tags": "\"amenity\"=>\"clinic\",\"name:en\"=>\"Apex Medical Center\",\"addr:street\"=>\"Braeton Parkway\"", "osm_id": "4486136090" }, "geometry": { "type": "Point", "coordinates": [ -76.8937378, 17.9635 ] } },
{ "type": "Feature", "properties": { "name": "Portmore Medical Services", "amenity": "clinic", "other_tags": "\"addr:housenumber\"=>\"31a\",\"addr:street\"=>\"West Biscayne Dr.\",\"amenity\"=>\"clinic\",\"level\"=>\"0\",\"opening_hours\"=>\"Mo-Su 08:00-23:59\",\"phone\"=>\"+18767048390\"", "osm_id": "4582193723" }, "geometry": { "type": "Point", "coordinates": [ -76.8794378, 17.9529707 ] } },
{ "type": "Feature", "properties": { "name": "West Bay Pharmacy", "amenity": "pharmacy", "other_tags": "\"addr:street\"=>\"East Biscayne Dr.\",\"amenity\"=>\"pharmacy\",\"opening_hours\"=>\"Mo-Su 10:00-23:59\",\"phone\"=>\"+18766227165\"", "osm_id": "4582212840" }, "geometry": { "type": "Point", "coordinates": [ -76.8793501, 17.9529214 ] } },
{ "type": "Feature", "properties": { "name": "Genus Pharmacy", "amenity": "pharmacy", "other_tags": "\"amenity\"=>\"pharmacy\",\"email\"=>\"genusrxbraeton@yahoo.com\",\"level\"=>\"0\",\"opening_hours\"=>\"Mo-Sa 09:00-22:00; Su 10:00-21:00\",\"phone\"=>\"18769881665\"", "osm_id": "4630893462" }, "geometry": { "type": "Point", "coordinates": [ -76.8980717, 17.9561293 ] } },
{ "type": "Feature", "properties": { "name": "Lacovia Medical Centre", "amenity": "doctors", "other_tags": "\"amenity\"=>\"doctors\",\"description\"=>\"Local family doctor.\",\"opening_hours\"=>\"07:00-17:00\"", "osm_id": "4636333195" }, "geometry": { "type": "Point", "coordinates": [ -77.7591305, 18.0831764 ] } },
{ "type": "Feature", "properties": { "name": "Duhaney Park Health Center", "amenity": "clinic", "other_tags": "\"amenity\"=>\"clinic\",\"name:en\"=>\"Duhaney Park Health Center\"", "osm_id": "4654253990" }, "geometry": { "type": "Point", "coordinates": [ -76.8453788, 18.0323907 ] } },
{ "type": "Feature", "properties": { "name": "Manor Park Pharmacy", "amenity": "pharmacy", "other_tags": "\"addr:street\"=>\"Constant Spring Road\",\"amenity\"=>\"pharmacy\",\"phone\"=>\"18769241424\"", "osm_id": "4691161073" }, "geometry": { "type": "Point", "coordinates": [ -76.792811, 18.0508608 ] } },
{ "type": "Feature", "properties": { "name": "Public Pharmacy", "amenity": "pharmacy", "other_tags": "\"amenity\"=>\"pharmacy\",\"healthcare\"=>\"pharmacy\"", "osm_id": "4691505849" }, "geometry": { "type": "Point", "coordinates": [ -76.7945897, 18.0487138 ] } },
{ "type": "Feature", "properties": { "name": "Cornwall Regional Hospital", "amenity": "hospital", "other_tags": "\"amenity\"=>\"hospital\",\"wikidata\"=>\"Q30254192\"", "osm_id": "4715648118" }, "geometry": { "type": "Point", "coordinates": [ -77.9099671, 18.4697243 ] } },
{ "type": "Feature", "properties": { "name": "Noel Holmes Hospital", "amenity": "hospital", "other_tags": "\"amenity\"=>\"hospital\",\"phone\"=>\"+18769562733\"", "osm_id": "4775937981" }, "geometry": { "type": "Point", "coordinates": [ -78.1678153, 18.4522795 ] } },
{ "type": "Feature", "properties": { "name": "New Kingston Pharmacy", "amenity": "pharmacy", "other_tags": "\"addr:housenumber\"=>\"30\",\"addr:street\"=>\"Dominica Drive\",\"amenity\"=>\"pharmacy\",\"dispensing\"=>\"yes\",\"drive_through\"=>\"no\",\"healthcare\"=>\"pharmacy\",\"opening_hours\"=>\"Mo-Fr 08:30-19:00; Sa 09:00-19:00\",\"phone\"=>\"1876 908 4765\"", "osm_id": "4823940670" }, "geometry": { "type": "Point", "coordinates": [ -76.7899059, 18.00683 ] } },
{ "type": "Feature", "properties": { "name": "Healthplus Pharmacy (2 White Church Street Branch)", "amenity": "pharmacy", "other_tags": "\"addr:street\"=>\"White Church Street\",\"amenity\"=>\"pharmacy\",\"name:en\"=>\"Healthplus Pharmacy (2 White Church Street Branch)\"", "osm_id": "4857782821" }, "geometry": { "type": "Point", "coordinates": [ -76.9511907, 17.9912203 ] } },
{ "type": "Feature", "properties": { "name": "LiveWell Pharmacy", "amenity": "pharmacy", "other_tags": "\"amenity\"=>\"pharmacy\",\"phone\"=>\"+18764424332\",\"whatsapp\"=>\"+18764424332\"", "osm_id": "5091682334" }, "geometry": { "type": "Point", "coordinates": [ -76.8954412, 17.9632477 ] } },
{ "type": "Feature", "properties": { "name": "Lifeline Medical Center", "amenity": "doctors", "other_tags": "\"amenity\"=>\"doctors\",\"healthcare\"=>\"doctor\"", "osm_id": "5158019860" }, "geometry": { "type": "Point", "coordinates": [ -77.1663671, 18.4257441 ] } },
{ "type": "Feature", "properties": { "name": "Portmore Hospital Complex", "amenity": "clinic", "other_tags": "\"addr:housenumber\"=>\"4\",\"addr:street\"=>\"Mega Way\",\"amenity\"=>\"clinic\",\"healthcare\"=>\"clinic\",\"opening_hours\"=>\"24\/7\",\"phone\"=>\"18767049365\"", "osm_id": "5778032068" }, "geometry": { "type": "Point", "coordinates": [ -76.8693762, 17.9691858 ] } },
{ "type": "Feature", "properties": { "name": "Bog walk Health Center", "amenity": "clinic", "other_tags": "\"amenity\"=>\"clinic\"", "osm_id": "6216257285" }, "geometry": { "type": "Point", "coordinates": [ -76.99454, 18.1135031 ] } },
{ "type": "Feature", "properties": { "name": "Howell's Medical Complex", "amenity": "doctors", "other_tags": "\"amenity\"=>\"doctors\",\"healthcare\"=>\"doctor\",\"opening_hours\"=>\"Su-Fr 09:00-18:00\",\"operator\"=>\"Dr. Jerome Howell\"", "osm_id": "6312185410" }, "geometry": { "type": "Point", "coordinates": [ -77.5107203, 18.0403741 ] } },
{ "type": "Feature", "properties": { "name": null, "amenity": "doctors", "other_tags": "\"amenity\"=>\"doctors\",\"healthcare\"=>\"doctor\",\"operator\"=>\"Dr. Ansell Gillman\"", "osm_id": "6312185411" }, "geometry": { "type": "Point", "coordinates": [ -77.5105309, 18.0427133 ] } },
{ "type": "Feature", "properties": { "name": null, "amenity": "doctors", "other_tags": "\"amenity\"=>\"doctors\",\"healthcare\"=>\"doctor\",\"operator\"=>\"Dr. Andrew Holness\"", "osm_id": "6312185412" }, "geometry": { "type": "Point", "coordinates": [ -77.6074679, 17.9067515 ] } },
{ "type": "Feature", "properties": { "name": "Uwi Health Center", "amenity": "hospital", "other_tags": "\"amenity\"=>\"hospital\",\"healthcare\"=>\"hospital\"", "osm_id": "6489529485" }, "geometry": { "type": "Point", "coordinates": [ -76.7436519, 18.0043341 ] } },
{ "type": "Feature", "properties": { "name": "Holy Spirit Clinic", "amenity": "clinic", "other_tags": "\"amenity\"=>\"clinic\"", "osm_id": "6564850257" }, "geometry": { "type": "Point", "coordinates": [ -77.7631241, 18.1619392 ] } },
{ "type": "Feature", "properties": { "name": "Life Yard", "amenity": "social_facility", "other_tags": "\"addr:housenumber\"=>\"44\",\"addr:street\"=>\"Fleet Street\",\"amenity\"=>\"social_facility\",\"contact:facebook\"=>\"https:\/\/www.facebook.com\/lifeteam360\/\",\"contact:instagram\"=>\"lifeyard360\",\"social_facility\"=>\"outreach\",\"website\"=>\"https:\/\/www.lifeyard.org\/\"", "osm_id": "6786584638" }, "geometry": { "type": "Point", "coordinates": [ -76.7843854, 17.9691134 ] } },
{ "type": "Feature", "properties": { "name": "Clinicare Pharmacy", "amenity": "pharmacy", "other_tags": "\"amenity\"=>\"pharmacy\"", "osm_id": "7080127968" }, "geometry": { "type": "Point", "coordinates": [ -77.9230629, 18.4739952 ] } }
]
}
